[{"iata":"TIA","lat":41.4146995544,"lon":19.7206001282,"cca2":"AL","region":"Europe","city":"Tirana"},{"iata":"ALG","lat":36.6910018921,"lon":3.2154099941,"cca2":"DZ","region":"Africa","city":"Algiers"},{"iata":"AAE","lat":36.85596,"lon":7.79207,"cca2":"DZ","region":"Africa","city":"Annaba"},{"iata":"ORN","lat":35.6911,"lon":-0.6416,"cca2":"DZ","region":"Africa","city":"Oran"},{"iata":"LAD","lat":-8.8583698273,"lon":13.2312002182,"cca2":"AO","region":"Africa","city":"Luanda"},{"iata":"EZE","lat":-34.8222,"lon":-58.5358,"cca2":"AR","region":"South America","city":"Buenos Aires"},{"iata":"COR","lat":-31.31,"lon":-64.208333,"cca2":"AR","region":"South America","city":"Córdoba"},{"iata":"NQN","lat":-38.9490013123,"lon":-68.1557006836,"cca2":"AR","region":"South America","city":"Neuquen"},{"iata":"EVN","lat":40.1473007202,"lon":44.3959007263,"cca2":"AM","region":"Middle East","city":"Yerevan"},{"iata":"ADL","lat":-34.9431729,"lon":138.5335637,"cca2":"AU","region":"Oceania","city":"Adelaide"},{"iata":"BNE","lat":-27.3841991425,"lon":153.117004394,"cca2":"AU","region":"Oceania","city":"Brisbane"},{"iata":"CBR","lat":-35.3069000244,"lon":149.1950073242,"cca2":"AU","region":"Oceania","city":"Canberra"},{"iata":"HBA","lat":-42.883209,"lon":147.331665,"cca2":"AU","region":"Oceania","city":"Hobart"},{"iata":"MEL","lat":-37.6733016968,"lon":144.843002319,"cca2":"AU","region":"Oceania","city":"Melbourne"},{"iata":"PER","lat":-31.9402999878,"lon":115.967002869,"cca2":"AU","region":"Oceania","city":"Perth"},{"iata":"SYD","lat":-33.9460983276,"lon":151.177001953,"cca2":"AU","region":"Oceania","city":"Sydney"},{"iata":"VIE","lat":48.1102981567,"lon":16.5697002411,"cca2":"AT","region":"Europe","city":"Vienna"},{"iata":"LLK","lat":38.7463989258,"lon":48.8180007935,"cca2":"AZ","region":"Middle East","city":"Astara"},{"iata":"GYD","lat":40.4674987793,"lon":50.0466995239,"cca2":"AZ","region":"Middle East","city":"Baku"},{"iata":"BAH","lat":26.2707996368,"lon":50.6335983276,"cca2":"BH","region":"Middle East","city":"Manama"},{"iata":"CGP","lat":22.2495995,"lon":91.8133011,"cca2":"BD","region":"Asia Pacific","city":"Chittagong"},{"iata":"DAC","lat":23.843347,"lon":90.397783,"cca2":"BD","region":"Asia Pacific","city":"Dhaka"},{"iata":"JSR","lat":23.1837997437,"lon":89.1607971191,"cca2":"BD","region":"Asia Pacific","city":"Jashore"},{"iata":"BGI","lat":13.103562,"lon":-59.603226,"cca2":"BB","region":"North America","city":"Bridgetown"},{"iata":"MSQ","lat":53.9006,"lon":27.599,"cca2":"BY","region":"Europe","city":"Minsk"},{"iata":"BRU","lat":50.9014015198,"lon":4.4844398499,"cca2":"BE","region":"Europe","city":"Brussels"},{"iata":"PBH","lat":27.4712,"lon":89.6339,"cca2":"BT","region":"Asia Pacific","city":"Thimphu"},{"iata":"GBE","lat":-24.6282,"lon":25.9231,"cca2":"BW","region":"Africa","city":"Gaborone"},{"iata":"QWJ","lat":-22.738,"lon":-47.334,"cca2":"BR","region":"South America","city":"Americana"},{"iata":"BEL","lat":-1.4563,"lon":-48.5013,"cca2":"BR","region":"South America","city":"Belém"},{"iata":"CNF","lat":-19.624444,"lon":-43.971944,"cca2":"BR","region":"South America","city":"Belo Horizonte"},{"iata":"BNU","lat":-26.89245,"lon":-49.07696,"cca2":"BR","region":"South America","city":"Blumenau"},{"iata":"BSB","lat":-15.79824,"lon":-47.90859,"cca2":"BR","region":"South America","city":"Brasilia"},{"iata":"CFC","lat":-26.7762,"lon":-51.0125,"cca2":"BR","region":"South America","city":"Cacador"},{"iata":"VCP","lat":-22.90662,"lon":-47.08576,"cca2":"BR","region":"South America","city":"Campinas"},{"iata":"CAW","lat":-21.698299408,"lon":-41.301700592,"cca2":"BR","region":"South America","city":"Campos dos Goytacazes"},{"iata":"XAP","lat":-27.1341991425,"lon":-52.6566009521,"cca2":"BR","region":"South America","city":"Chapeco"},{"iata":"CGB","lat":-15.59611,"lon":-56.09667,"cca2":"BR","region":"South America","city":"Cuiaba"},{"iata":"CWB","lat":-25.5284996033,"lon":-49.1758003235,"cca2":"BR","region":"South America","city":"Curitiba"},{"iata":"FLN","lat":-27.6702785492,"lon":-48.5525016785,"cca2":"BR","region":"South America","city":"Florianopolis"},{"iata":"FOR","lat":-3.7762799263,"lon":-38.5326004028,"cca2":"BR","region":"South America","city":"Fortaleza"},{"iata":"GYN","lat":-16.69727,"lon":-49.26851,"cca2":"BR","region":"South America","city":"Goiania"},{"iata":"ITJ","lat":-27.6116676331,"lon":-48.6727790833,"cca2":"BR","region":"South America","city":"Itajai"},{"iata":"JOI","lat":-26.304408,"lon":-48.846383,"cca2":"BR","region":"South America","city":"Joinville"},{"iata":"JDO","lat":-7.2242,"lon":-39.313,"cca2":"BR","region":"South America","city":"Juazeiro do Norte"},{"iata":"MAO","lat":-3.11286,"lon":-60.01949,"cca2":"BR","region":"South America","city":"Manaus"},{"iata":"POA","lat":-29.9944000244,"lon":-51.1713981628,"cca2":"BR","region":"South America","city":"Porto Alegre"},{"iata":"REC","lat":-8.1264896393,"lon":-34.9235992432,"cca2":"BR","region":"South America","city":"Recife"},{"iata":"RAO","lat":-21.1363887787,"lon":-47.7766685486,"cca2":"BR","region":"South America","city":"Ribeirao Preto"},{"iata":"GIG","lat":-22.8099994659,"lon":-43.2505569458,"cca2":"BR","region":"South America","city":"Rio de Janeiro"},{"iata":"SSA","lat":-12.9086112976,"lon":-38.3224983215,"cca2":"BR","region":"South America","city":"Salvador"},{"iata":"SJP","lat":-20.807157,"lon":-49.378994,"cca2":"BR","region":"South America","city":"São José do Rio Preto"},{"iata":"SJK","lat":-23.1791,"lon":-45.8872,"cca2":"BR","region":"South America","city":"São José dos Campos"},{"iata":"GRU","lat":-23.4355564117,"lon":-46.4730567932,"cca2":"BR","region":"South America","city":"São Paulo"},{"iata":"SOD","lat":-23.54389,"lon":-46.63445,"cca2":"BR","region":"South America","city":"Sorocaba"},{"iata":"NVT","lat":-26.8251,"lon":-49.2695,"cca2":"BR","region":"South America","city":"Timbo"},{"iata":"UDI","lat":-18.8836116791,"lon":-48.225276947,"cca2":"BR","region":"South America","city":"Uberlandia"},{"iata":"VIX","lat":-20.64871,"lon":-41.90857,"cca2":"BR","region":"South America","city":"Vitoria"},{"iata":"BWN","lat":4.903052,"lon":114.939819,"cca2":"BN","region":"Asia Pacific","city":"Bandar Seri Begawan"},{"iata":"SOF","lat":42.6966934204,"lon":23.4114360809,"cca2":"BG","region":"Europe","city":"Sofia"},{"iata":"OUA","lat":12.3531999588,"lon":-1.5124200583,"cca2":"BF","region":"Africa","city":"Ouagadougou"},{"iata":"PNH","lat":11.5466003418,"lon":104.84400177,"cca2":"KH","region":"Asia Pacific","city":"Phnom Penh"},{"iata":"YYC","lat":51.113899231,"lon":-114.019996643,"cca2":"CA","region":"North America","city":"Calgary"},{"iata":"YVR","lat":49.193901062,"lon":-123.183998108,"cca2":"CA","region":"North America","city":"Vancouver"},{"iata":"YWG","lat":49.9099998474,"lon":-97.2398986816,"cca2":"CA","region":"North America","city":"Winnipeg"},{"iata":"YOW","lat":45.3224983215,"lon":-75.6691970825,"cca2":"CA","region":"North America","city":"Ottawa"},{"iata":"YYZ","lat":43.6772003174,"lon":-79.6305999756,"cca2":"CA","region":"North America","city":"Toronto"},{"iata":"YUL","lat":45.4706001282,"lon":-73.7407989502,"cca2":"CA","region":"North America","city":"Montréal"},{"iata":"YXE","lat":52.1707992554,"lon":-106.699996948,"cca2":"CA","region":"North America","city":"Saskatoon"},{"iata":"ARI","lat":-18.348611,"lon":-70.338889,"cca2":"CL","region":"South America","city":"Arica"},{"iata":"SCL","lat":-33.3930015564,"lon":-70.7857971191,"cca2":"CL","region":"South America","city":"Santiago"},{"iata":"BOG","lat":4.70159,"lon":-74.1469,"cca2":"CO","region":"South America","city":"Bogotá"},{"iata":"MDE","lat":6.16454,"lon":-75.4231,"cca2":"CO","region":"South America","city":"Medellín"},{"iata":"FIH","lat":-4.3857498169,"lon":15.4446001053,"cca2":"CD","region":"Africa","city":"Kinshasa"},{"iata":"SJO","lat":9.9938602448,"lon":-84.2088012695,"cca2":"CR","region":"South America","city":"San José"},{"iata":"ZAG","lat":45.7429008484,"lon":16.0687999725,"cca2":"HR","region":"Europe","city":"Zagreb"},{"iata":"CUR","lat":12.1888999939,"lon":-68.9598007202,"cca2":"CW","region":"North America","city":"Willemstad"},{"iata":"LCA","lat":34.8750991821,"lon":33.6249008179,"cca2":"CY","region":"Europe","city":"Nicosia"},{"iata":"PRG","lat":50.1007995605,"lon":14.2600002289,"cca2":"CZ","region":"Europe","city":"Prague"},{"iata":"CPH","lat":55.6179008484,"lon":12.6560001373,"cca2":"DK","region":"Europe","city":"Copenhagen"},{"iata":"JIB","lat":11.5473003387,"lon":43.1595001221,"cca2":"DJ","region":"Africa","city":"Djibouti"},{"iata":"SDQ","lat":18.4297008514,"lon":-69.6688995361,"cca2":"DO","region":"North America","city":"Santo Domingo"},{"iata":"GYE","lat":-2.1894,"lon":-79.8891,"cca2":"EC","region":"South America","city":"Guayaquil"},{"iata":"UIO","lat":-0.1291666667,"lon":-78.3575,"cca2":"EC","region":"South America","city":"Quito"},{"iata":"CAI","lat":30.1219005585,"lon":31.4055995941,"cca2":"EG","region":"Africa","city":"Cairo"},{"iata":"TLL","lat":59.4132995605,"lon":24.8327999115,"cca2":"EE","region":"Europe","city":"Tallinn"},{"iata":"HEL","lat":60.317199707,"lon":24.963300705,"cca2":"FI","region":"Europe","city":"Helsinki"},{"iata":"BOD","lat":44.82946,"lon":-0.58355,"cca2":"FR","region":"Europe","city":"Bordeaux"},{"iata":"LYS","lat":45.7263,"lon":5.0908,"cca2":"FR","region":"Europe","city":"Lyon"},{"iata":"MRS","lat":43.439271922,"lon":5.2214241028,"cca2":"FR","region":"Europe","city":"Marseille"},{"iata":"CDG","lat":49.0127983093,"lon":2.5499999523,"cca2":"FR","region":"Europe","city":"Paris"},{"iata":"PPT","lat":-17.5536994934,"lon":-149.606994629,"cca2":"PF","region":"Oceania","city":"Tahiti"},{"iata":"TBS","lat":41.6692008972,"lon":44.95470047,"cca2":"GE","region":"Europe","city":"Tbilisi"},{"iata":"TXL","lat":52.5597000122,"lon":13.2876996994,"cca2":"DE","region":"Europe","city":"Berlin"},{"iata":"DUS","lat":51.2895011902,"lon":6.7667798996,"cca2":"DE","region":"Europe","city":"Düsseldorf"},{"iata":"FRA","lat":50.0264015198,"lon":8.543129921,"cca2":"DE","region":"Europe","city":"Frankfurt"},{"iata":"HAM","lat":53.6304016113,"lon":9.9882297516,"cca2":"DE","region":"Europe","city":"Hamburg"},{"iata":"MUC","lat":48.3538017273,"lon":11.7861003876,"cca2":"DE","region":"Europe","city":"Munich"},{"iata":"STR","lat":48.783333,"lon":9.183333,"cca2":"DE","region":"Europe","city":"Stuttgart"},{"iata":"ACC","lat":5.614818,"lon":-0.205874,"cca2":"GH","region":"Africa","city":"Accra"},{"iata":"ATH","lat":37.9364013672,"lon":23.9444999695,"cca2":"GR","region":"Europe","city":"Athens"},{"iata":"SKG","lat":40.5196990967,"lon":22.9708995819,"cca2":"GR","region":"Europe","city":"Thessaloniki"},{"iata":"GND","lat":12.007116,"lon":-61.7882288,"cca2":"GD","region":"South America","city":"St. George's"},{"iata":"GUM","lat":13.4834003448,"lon":144.796005249,"cca2":"GU","region":"Asia Pacific","city":"Hagatna"},{"iata":"GUA","lat":14.5832996368,"lon":-90.5274963379,"cca2":"GT","region":"North America","city":"Guatemala City"},{"iata":"GEO","lat":6.825648,"lon":-58.163756,"cca2":"GY","region":"South America","city":"Georgetown"},{"iata":"TGU","lat":14.0608,"lon":-87.2172,"cca2":"HN","region":"South America","city":"Tegucigalpa"},{"iata":"HKG","lat":22.3089008331,"lon":113.915000916,"cca2":"HK","region":"Asia Pacific","city":"Hong Kong"},{"iata":"BUD","lat":47.4369010925,"lon":19.2555999756,"cca2":"HU","region":"Europe","city":"Budapest"},{"iata":"KEF","lat":63.9850006104,"lon":-22.6056003571,"cca2":"IS","region":"Europe","city":"Reykjavík"},{"iata":"AMD","lat":23.0225,"lon":72.5714,"cca2":"IN","region":"Asia Pacific","city":"Ahmedabad"},{"iata":"BLR","lat":13.7835719,"lon":76.6165937,"cca2":"IN","region":"Asia Pacific","city":"Bangalore"},{"iata":"BBI","lat":20.2961,"lon":85.8245,"cca2":"IN","region":"Asia Pacific","city":"Bhubaneswar"},{"iata":"IXC","lat":30.673500061,"lon":76.7884979248,"cca2":"IN","region":"Asia Pacific","city":"Chandigarh"},{"iata":"MAA","lat":12.9900054932,"lon":80.1692962646,"cca2":"IN","region":"Asia Pacific","city":"Chennai"},{"iata":"HYD","lat":17.2313175201,"lon":78.4298553467,"cca2":"IN","region":"Asia Pacific","city":"Hyderabad"},{"iata":"CNN","lat":11.915858,"lon":75.55094,"cca2":"IN","region":"Asia Pacific","city":"Kannur"},{"iata":"KNU","lat":26.4499,"lon":80.3319,"cca2":"IN","region":"Asia Pacific","city":"Kanpur"},{"iata":"COK","lat":9.9312,"lon":76.2673,"cca2":"IN","region":"Asia Pacific","city":"Kochi"},{"iata":"CCU","lat":22.6476933,"lon":88.4349249,"cca2":"IN","region":"Asia Pacific","city":"Kolkata"},{"iata":"BOM","lat":19.0886993408,"lon":72.8678970337,"cca2":"IN","region":"Asia Pacific","city":"Mumbai"},{"iata":"NAG","lat":21.1610714,"lon":79.0024702,"cca2":"IN","region":"Asia Pacific","city":"Nagpur"},{"iata":"DEL","lat":28.5664997101,"lon":77.1031036377,"cca2":"IN","region":"Asia Pacific","city":"New Delhi"},{"iata":"PAT","lat":25.591299057,"lon":85.0879974365,"cca2":"IN","region":"Asia Pacific","city":"Patna"},{"iata":"DPS","lat":-8.748169899,"lon":115.1669998169,"cca2":"ID","region":"Asia Pacific","city":"Denpasar"},{"iata":"CGK","lat":-6.1275229,"lon":106.6515118,"cca2":"ID","region":"Asia Pacific","city":"Jakarta"},{"iata":"JOG","lat":-7.7881798744,"lon":110.4319992065,"cca2":"ID","region":"Asia Pacific","city":"Yogyakarta"},{"iata":"BGW","lat":33.2625007629,"lon":44.2346000671,"cca2":"IQ","region":"Middle East","city":"Baghdad"},{"iata":"BSR","lat":30.5491008759,"lon":47.6621017456,"cca2":"IQ","region":"Middle East","city":"Basra"},{"iata":"EBL","lat":36.1901,"lon":43.993,"cca2":"IQ","region":"Middle East","city":"Erbil"},{"iata":"NJF","lat":31.989722,"lon":44.404167,"cca2":"IQ","region":"Middle East","city":"Najaf"},{"iata":"XNH","lat":30.9358005524,"lon":46.0900993347,"cca2":"IQ","region":"Middle East","city":"Nasiriyah"},{"iata":"ISU","lat":35.5668,"lon":45.4161,"cca2":"IQ","region":"Middle East","city":"Sulaymaniyah"},{"iata":"ORK","lat":51.8413009644,"lon":-8.491109848,"cca2":"IE","region":"Europe","city":"Cork"},{"iata":"DUB","lat":53.4212989807,"lon":-6.270070076,"cca2":"IE","region":"Europe","city":"Dublin"},{"iata":"HFA","lat":32.78492,"lon":34.96069,"cca2":"IL","region":"Middle East","city":"Haifa"},{"iata":"TLV","lat":32.0113983154,"lon":34.8866996765,"cca2":"IL","region":"Middle East","city":"Tel Aviv"},{"iata":"MXP","lat":45.6305999756,"lon":8.7281103134,"cca2":"IT","region":"Europe","city":"Milan"},{"iata":"PMO","lat":38.16114,"lon":13.31546,"cca2":"IT","region":"Europe","city":"Palermo"},{"iata":"FCO","lat":41.8045005798,"lon":12.2508001328,"cca2":"IT","region":"Europe","city":"Rome"},{"iata":"KIN","lat":17.9951,"lon":-76.7846,"cca2":"JM","region":"North America","city":"Kingston"},{"iata":"FUK","lat":33.5902,"lon":130.4017,"cca2":"JP","region":"Asia Pacific","city":"Fukuoka"},{"iata":"OKA","lat":26.1958,"lon":127.646,"cca2":"JP","region":"Asia Pacific","city":"Naha"},{"iata":"KIX","lat":34.4272994995,"lon":135.244003296,"cca2":"JP","region":"Asia Pacific","city":"Osaka"},{"iata":"NRT","lat":35.7647018433,"lon":140.386001587,"cca2":"JP","region":"Asia Pacific","city":"Tokyo"},{"iata":"AMM","lat":31.7226009369,"lon":35.9931983948,"cca2":"JO","region":"Middle East","city":"Amman"},{"iata":"ALA","lat":43.3521003723,"lon":77.0404968262,"cca2":"KZ","region":"Asia Pacific","city":"Almaty"},{"iata":"MBA","lat":-4.0348300934,"lon":39.5942001343,"cca2":"KE","region":"Africa","city":"Mombasa"},{"iata":"NBO","lat":-1.319239974,"lon":36.9277992249,"cca2":"KE","region":"Africa","city":"Nairobi"},{"iata":"ICN","lat":37.4691009521,"lon":126.450996399,"cca2":"KR","region":"Asia Pacific","city":"Seoul"},{"iata":"KWI","lat":29.226600647,"lon":47.9688987732,"cca2":"KW","region":"Middle East","city":"Kuwait City"},{"iata":"VTE","lat":17.9757,"lon":102.5683,"cca2":"LA","region":"Asia Pacific","city":"Vientiane"},{"iata":"RIX","lat":56.9235992432,"lon":23.9710998535,"cca2":"LV","region":"Europe","city":"Riga"},{"iata":"BEY","lat":33.8208999634,"lon":35.4883995056,"cca2":"LB","region":"Middle East","city":"Beirut"},{"iata":"VNO","lat":54.6341018677,"lon":25.2858009338,"cca2":"LT","region":"Europe","city":"Vilnius"},{"iata":"LUX","lat":49.6265983582,"lon":6.211520195,"cca2":"LU","region":"Europe","city":"Luxembourg City"},{"iata":"MFM","lat":22.1495990753,"lon":113.592002869,"cca2":"MO","region":"Asia Pacific","city":"Macau"},{"iata":"TNR","lat":-18.91368,"lon":47.53613,"cca2":"MG","region":"Africa","city":"Antananarivo"},{"iata":"JHB","lat":1.635848,"lon":103.665943,"cca2":"MY","region":"Asia Pacific","city":"Johor Bahru"},{"iata":"KUL","lat":2.745579958,"lon":101.709999084,"cca2":"MY","region":"Asia Pacific","city":"Kuala Lumpur"},{"iata":"MLE","lat":4.1748,"lon":73.50888,"cca2":"MV","region":"Asia Pacific","city":"Male"},{"iata":"MRU","lat":-20.4302005768,"lon":57.6836013794,"cca2":"MU","region":"Africa","city":"Port Louis"},{"iata":"GDL","lat":20.5217990875,"lon":-103.3109970093,"cca2":"MX","region":"North America","city":"Guadalajara"},{"iata":"MEX","lat":19.4363002777,"lon":-99.0720977783,"cca2":"MX","region":"North America","city":"Mexico City"},{"iata":"QRO","lat":20.6173000336,"lon":-100.185997009,"cca2":"MX","region":"North America","city":"Queretaro"},{"iata":"KIV","lat":46.9277000427,"lon":28.9309997559,"cca2":"MD","region":"Europe","city":"Chișinău"},{"iata":"ULN","lat":47.8431015015,"lon":106.766998291,"cca2":"MN","region":"Asia Pacific","city":"Ulaanbaatar"},{"iata":"CMN","lat":33.3675003052,"lon":-7.5899701118,"cca2":"MA","region":"Africa","city":"Casablanca"},{"iata":"MPM","lat":-25.9207992554,"lon":32.5726013184,"cca2":"MZ","region":"Africa","city":"Maputo"},{"iata":"MDL","lat":21.7051697,"lon":95.9695206,"cca2":"MM","region":"Asia Pacific","city":"Mandalay"},{"iata":"RGN","lat":16.9073009491,"lon":96.1332015991,"cca2":"MM","region":"Asia Pacific","city":"Yangon"},{"iata":"KTM","lat":27.6965999603,"lon":85.3591003418,"cca2":"NP","region":"Asia Pacific","city":"Kathmandu"},{"iata":"AMS","lat":52.3086013794,"lon":4.7638897896,"cca2":"NL","region":"Europe","city":"Amsterdam"},{"iata":"NOU","lat":-22.0146007538,"lon":166.212997436,"cca2":"NC","region":"Oceania","city":"Noumea"},{"iata":"AKL","lat":-37.0080986023,"lon":174.792007446,"cca2":"NZ","region":"Oceania","city":"Auckland"},{"iata":"CHC","lat":-43.4893989563,"lon":172.5319976807,"cca2":"NZ","region":"Oceania","city":"Christchurch"},{"iata":"LOS","lat":6.5773701668,"lon":3.321160078,"cca2":"NG","region":"Africa","city":"Lagos"},{"iata":"OSL","lat":60.193901062,"lon":11.100399971,"cca2":"NO","region":"Europe","city":"Oslo"},{"iata":"MCT","lat":23.5932998657,"lon":58.2844009399,"cca2":"OM","region":"Middle East","city":"Muscat"},{"iata":"ISB","lat":33.6166992188,"lon":73.0991973877,"cca2":"PK","region":"Asia Pacific","city":"Islamabad"},{"iata":"KHI","lat":24.9064998627,"lon":67.1607971191,"cca2":"PK","region":"Asia Pacific","city":"Karachi"},{"iata":"LHE","lat":31.5216007233,"lon":74.4036026001,"cca2":"PK","region":"Asia Pacific","city":"Lahore"},{"iata":"ZDM","lat":32.2719,"lon":35.0194,"cca2":"PS","region":"Middle East","city":"Ramallah"},{"iata":"PTY","lat":9.0713596344,"lon":-79.3834991455,"cca2":"PA","region":"South America","city":"Panama City"},{"iata":"ASU","lat":-25.2399997711,"lon":-57.5200004578,"cca2":"PY","region":"South America","city":"Asunción"},{"iata":"LIM","lat":-12.021900177,"lon":-77.1143035889,"cca2":"PE","region":"South America","city":"Lima"},{"iata":"CGY","lat":8.4156198502,"lon":124.611000061,"cca2":"PH","region":"Asia Pacific","city":"Cagayan de Oro"},{"iata":"CEB","lat":10.3074998856,"lon":123.978996277,"cca2":"PH","region":"Asia Pacific","city":"Cebu"},{"iata":"MNL","lat":14.508600235,"lon":121.019996643,"cca2":"PH","region":"Asia Pacific","city":"Manila"},{"iata":"WAW","lat":52.1656990051,"lon":20.9671001434,"cca2":"PL","region":"Europe","city":"Warsaw"},{"iata":"LIS","lat":38.7812995911,"lon":-9.1359195709,"cca2":"PT","region":"Europe","city":"Lisbon"},{"iata":"DOH","lat":25.2605946,"lon":51.6137665,"cca2":"QA","region":"Middle East","city":"Doha"},{"iata":"RU
